{
	"locations" : [
		{
			"id" : "53f88290498ef2ad1a6c8308",
			"title" : "Bubba Gump Shrimp Co",
			"lat" : 51.510339800134155,
			"lng" : -0.13244546545923674
		},
		{
			"id" : "4ac518dbf964a520f9a820e3",
			"title" : "Sofra",
			"lat" : 51.51512250834168,
			"lng" : -0.1501999599493113
		},
		{
			"id" : "519683eb498e730763b6d3f7",
			"title" : "Dozo",
			"lat" : 51.51330271089248,
			"lng" : -0.1310141002193629
		},
		{
			"id" : "4ac518daf964a520c9a820e3",
			"title" : "PizzaExpress",
			"lat" : 51.51504339759184,
			"lng" : -0.13338607034736513
		},
		{
			"id" : "4b6589eff964a520b3f32ae3",
			"title" : "Loch Fyne Seafood & Grill",
			"lat" : 51.51244824086326,
			"lng" : -0.11987491522397674
		}
	]
}
